[
  {
    "id": "249942",
    "name": "Hotel Stefanos",
    "stars": 3,
    "price": 994.18,
    "image": "4900059_30_b.jpg",
    "amenities": [
      "safety-box",
      "nightclub",
      "deep-soaking-bathtub",
      "beach",
      "business-center"
    ],
    "latitude": 4.676273,
    "longitude": -74.056917,
    "address": "53 May Road, Mount Roskill, Auckland, 1041",
    "hour": "11:00"
  },
  {
    "id": "161901",
    "name": "Hotel Santa Cruz",
    "stars": 3,
    "price": 1267.57,
    "image": "6623490_6_b.jpg",
    "amenities": [
      "nightclub",
      "business-center",
      "bathtub",
      "newspaper",
      "restaurant"
    ],
    "latitude": 37.42,
    "longitude": -122.084,
    "address": "7 Fenshawe St, CBD, Auckland",
    "hour": "5:00"
  },
  {
    "id": "161914",
    "name": "NM Lima Hotel",
    "stars": 4,
    "price": 1445.5,
    "image": "981018_26_b.jpg",
    "amenities": [
      "business-center",
      "nightclub",
      "deep-soaking-bathtub",
      "fitness-center",
      "garden"
    ],
    "latitude": 37.418,
    "longitude": -122.089,
    "address": "39-51 Rora Street, Te Kuiti, 3910",
    "hour": "4:00"
  },
  {
    "id": "208599",
    "name": "El Golf Hotel Boutique",
    "stars": 4,
    "price": 1513.45,
    "image": "1191401_110_b.jpg",
    "amenities": [
      "safety-box",
      "bathrobes",
      "business-center",
      "beach-pool-facilities",
      "restaurant"
    ],
    "latitude": 36.845246,
    "longitude": -122.760389,
    "address": "53 May Road, Mount Roskill, Auckland, 1041",
    "hour": "11:00"
  },
  {
    "id": "236309",
    "name": "Casa Andina Select Miraflores",
    "stars": 4,
    "price": 1545.46,
    "image": "2a5bb415_b.jpg",
    "amenities": [
      "coffe-maker",
      "safety-box",
      "restaurant",
      "garden",
      "children-club"
    ],
    "latitude": 45.908622,
    "longitude": -110.734362,
    "address": "7 Fenshawe St, CBD, Auckland",
    "hour": "3:00"
  },
  {
    "id": "161899",
    "name": "Radisson Hotel Decapolis Miraflores",
    "stars": 4,
    "price": 2314.61,
    "image": "46512_29_b.jpg",
    "amenities": [
      "bathtub",
      "separate-bredroom",
      "safety-box",
      "business-center",
      "beach-pool-facilities"
    ],
    "latitude": -20.623065,
    "longitude": 175.282791,
    "address": "39-51 Rora Street, Te Kuiti, 3910",
    "hour": "4:00"
  },
  {
    "id": "104074",
    "name": "Antigua Miraflores Hotel",
    "stars": 3,
    "price": 1862.16,
    "image": "480835_73_b.jpg",
    "amenities": [
      "restaurant",
      "separate-bredroom",
      "business-center",
      "bathrobes",
      "beach"
    ],
    "latitude": -31.315834,
    "longitude": 172.814633,
    "address": "10 Clonbern Road, Remuera, Auckland, 1050",
    "hour": "10:00 am"
  },
  {
    "id": "512559",
    "name": "Casa Falleri Boutique Hotel",
    "stars": 3,
    "price": 1634.03,
    "image": "11908954_150_b.jpg",
    "amenities": [
      "nightclub",
      "garden",
      "coffe-maker",
      "kitchen-facilities",
      "deep-soaking-bathtub"
    ],
    "latitude": -38.24998,
    "longitude": 170.727935,
    "address": "2 College Hill, Freemans Bay, Auckland, 1011",
    "hour": "9:00"
  }
]
